[
  {
    "id": "city-new-york",
    "name": "New York",
    "country": "United States",
    "region": "north-america",
    "timezone": "America/New_York",
    "lat": 40.7128,
    "lng": -74.006
  },
  {
    "id": "city-london",
    "name": "London",
    "country": "United Kingdom",
    "region": "europe",
    "timezone": "Europe/London",
    "lat": 51.5074,
    "lng": -0.1278
  },
  {
    "id": "city-tokyo",
    "name": "Tokyo",
    "country": "Japan",
    "region": "asia-pacific",
    "timezone": "Asia/Tokyo",
    "lat": 35.6762,
    "lng": 139.6503
  },
  {
    "id": "city-sao-paulo",
    "name": "SÃ£o Paulo",
    "country": "Brazil",
    "region": "south-america",
    "timezone": "America/Sao_Paulo",
    "lat": -23.5505,
    "lng": -46.6333
  },
  {
    "id": "city-lagos",
    "name": "Lagos",
    "country": "Nigeria",
    "region": "africa",
    "timezone": "Africa/Lagos",
    "lat": 6.5244,
    "lng": 3.3792
  },
  {
    "id": "city-dubai",
    "name": "Dubai",
    "country": "United Arab Emirates",
    "region": "middle-east",
    "timezone": "Asia/Dubai",
    "lat": 25.2048,
    "lng": 55.2708
  },
  {
    "id": "city-mumbai",
    "name": "Mumbai",
    "country": "India",
    "region": "south-asia",
    "timezone": "Asia/Kolkata",
    "lat": 19.076,
    "lng": 72.8777
  },
  {
    "id": "city-sydney",
    "name": "Sydney",
    "country": "Australia",
    "region": "oceania",
    "timezone": "Australia/Sydney",
    "lat": -33.8688,
    "lng": 151.2093
  },
  {
    "id": "city-berlin",
    "name": "Berlin",
    "country": "Germany",
    "region": "europe",
    "timezone": "Europe/Berlin",
    "lat": 52.52,
    "lng": 13.405
  },
  {
    "id": "city-mexico-city",
    "name": "Mexico City",
    "country": "Mexico",
    "region": "north-america",
    "timezone": "America/Mexico_City",
    "lat": 19.4326,
    "lng": -99.1332
  }
]
